% program   : RTKLIB ver.2.4.2
% inp file  : /home/wws/GraphGNSSLib/src/global_fusion/src/rtk_estimator/gps_solution_TST//COM3_190428_124409.obs
% inp file  : /home/wws/GraphGNSSLib/src/global_fusion/src/rtk_estimator/gps_solution_TST//hksc1180.19o
% inp file  : /home/wws/GraphGNSSLib/src/global_fusion/src/rtk_estimator/gps_solution_TST//hksc1180.19b
% inp file  : /home/wws/GraphGNSSLib/src/global_fusion/src/rtk_estimator/gps_solution_TST//hksc1180.19n
% obs start : 2019/04/28 12:44:34.0 GPST (week2051  45874.0s)
% obs end   : 2019/04/28 13:13:53.0 GPST (week2051  47633.0s)
% pos mode  : kinematic
% freqs     : L1+L2
% solution  : forward
% elev mask : 15.0 deg
% dynamics  : off
% tidecorr  : off
% ionos opt : broadcast
% tropo opt : saastamoinen
% ephemeris : broadcast
% navi sys  : gps glonass galileo qzss sbas
% amb res   : fix and hold
% amb glo   : on
% val thres : 3.0
% antenna1  :                       ( 0.0000  0.0000  0.0000)
% antenna2  :                       ( 0.0000  0.0000  0.0000)
% ref pos   : 22.322172082, 114.141187963,   20.2386
%
% (lat/lon/height=WGS84/ellipsoidal,Q=1:fix,2:float,3:sbas,4:dgps,5:single,6:ppp,ns=# of satellites)
%  GPST        , latitude(deg),longitude(deg), height(m),  Q, ns,  sdn(m),  sde(m),  sdu(m), sdne(m), sdeu(m), sdun(m),age(s), ratio
2051, 45874.000,  22.301487388, 114.190297421,   11.2072,  2,  5,  0.8321,  0.9107,  6.8808, -0.4141, -2.0885,  1.5929,  4.00,   0.0
2051, 45875.000,  22.301518852, 114.190309867,   -6.2275,  5,  3,  0.7736,  1.0718, 29.9824, -0.7073, -5.2046,  3.8382,  5.00,   0.0
2051, 45876.000,  22.301511014, 114.190298693,   13.1490,  2,  4,  0.5317,  0.5625,  4.6850, -0.3155, -1.3411,  1.0749,  6.00,   0.0
2051, 45877.000,  22.301455146, 114.190283256,  -10.8111,  5,  3,  7.0226,  1.7129, 29.1374, -3.2474, -6.7039, 14.2519,  7.00,   0.0
2051, 45879.000,  22.301540497, 114.190273018,   31.9391,  2,  6,  0.5205,  0.5103,  3.4157, -0.3787, -1.1107,  0.9951,  9.00,   0.0
2051, 45880.000,  22.301525358, 114.190277442,   26.4753,  2,  6,  0.4282,  0.4291,  2.5898, -0.2866, -0.8861,  0.7528, 10.00,   0.0
2051, 45881.000,  22.301514103, 114.190279825,   24.2349,  2,  6,  0.3739,  0.3784,  2.1771, -0.2339, -0.7632,  0.6258, 11.00,   0.0
2051, 45882.000,  22.301501889, 114.190279761,   20.4000,  2,  6,  0.3370,  0.3436,  1.9179, -0.2000, -0.6831,  0.5453, 12.00,   0.0
2051, 45883.000,  22.301491578, 114.190277286,   20.8922,  2,  6,  0.3691,  0.6973,  3.4320,  0.3050, -1.4927, -0.5935, 13.00,   0.0
2051, 45884.000,  22.301492784, 114.190288113,   16.1216,  2,  5,  0.3265,  0.5125,  2.5099,  0.1818, -1.0695, -0.2758, 14.00,   0.0
2051, 45885.000,  22.301491631, 114.190288079,   13.4021,  2,  6,  0.2984,  0.4291,  2.0954,  0.1246, -0.8801,  0.0379, 15.00,   0.0
2051, 45886.000,  22.301460087, 114.190267817,   11.0249,  2,  6,  0.6015,  0.5970,  3.5339,  0.4713, -1.1234,  0.2108, 16.00,   0.0
2051, 45887.000,  22.301476661, 114.190284081,   11.5352,  2,  6,  0.4445,  0.4472,  2.5573,  0.3081, -0.8399,  0.2852, 17.00,   0.0
2051, 45888.000,  22.301476054, 114.190290472,    6.2615,  2,  6,  0.3746,  0.3802,  2.1223,  0.2330, -0.7132,  0.2935, 18.00,   0.0
2051, 45889.000,  22.301478489, 114.190292989,    4.9430,  2,  6,  0.3372,  0.3501,  1.8892,  0.1742, -0.6575,  0.3203, 19.00,   0.0
2051, 45890.000,  22.301473943, 114.190298385,    1.1158,  2,  4,  0.3177,  0.3353,  2.4119,  0.1124, -0.7328,  0.4846, 20.00,   0.0
2051, 45891.000,  22.301476923, 114.190305740,   -8.5541,  2,  6,  0.2851,  0.2967,  1.6697,  0.1219, -0.5675,  0.3137, 21.00,   0.0
2051, 45892.000,  22.301479806, 114.190301715,    5.0758,  2,  4,  0.2783,  0.2830,  1.6365,  0.1173, -0.5392,  0.3289, 22.00,   0.0
2051, 45893.000,  22.301488334, 114.190322763,  -14.7707,  2,  6,  0.2604,  0.2664,  1.5018,  0.0983, -0.5090,  0.3048, 23.00,   0.0
2051, 45894.000,  22.301526992, 114.190368696,  -24.3125,  2,  5,  0.2589,  0.2649,  1.4137,  0.1160, -0.4932,  0.2714, 24.00,   0.0
2051, 45895.000,  22.301464877, 114.190317086,  -13.8933,  2,  6,  0.2489,  0.2495,  1.3358,  0.0892, -0.4674,  0.2802, 25.00,   2.4
2051, 45896.000,  22.301469510, 114.190312652,   -6.8389,  2,  6,  0.2449,  0.2456,  1.9388,  0.0524, -0.5303,  0.3948, 26.00, 172.7
2051, 45897.000,  22.301466449, 114.190313324,  -10.0985,  2,  5,  0.2345,  0.2360,  1.7766,  0.0434, -0.5005,  0.3694, 27.00,   3.1
2051, 45898.000,  22.301466286, 114.190313402,  -10.8900,  2,  6,  0.2242,  0.2263,  1.5660,  0.0429, -0.4626,  0.3298, 28.00, 999.9
2051, 45899.000,  22.301469846, 114.190313023,   -8.4254,  2,  6,  0.2159,  0.2187,  1.4381,  0.0383, -0.4386,  0.3065, 29.00,  43.7
2051, 45900.000,  22.301471906, 114.190310438,   -6.5398,  2,  6,  0.2036,  0.2059,  1.2968,  0.0396, -0.4052,  0.2784, -0.00,  96.9
2051, 45901.000,  22.301472410, 114.190310517,   -7.6341,  2,  5,  0.1978,  0.2005,  1.2295,  0.0346, -0.3911,  0.2634,  1.00,  12.0
2051, 45902.000,  22.301472755, 114.190307934,   -6.7963,  2,  5,  0.1924,  0.1951,  1.1717,  0.0266, -0.3773,  0.2529,  2.00,  17.6
2051, 45903.000,  22.301473527, 114.190305887,   -4.4334,  2,  6,  0.1868,  0.1899,  1.1219,  0.0211, -0.3657,  0.2443,  3.00,   3.7
2051, 45904.000,  22.301474715, 114.190304129,   -2.9948,  2,  6,  0.1818,  0.1851,  1.0785,  0.0153, -0.3553,  0.2367,  4.00,   1.1
2051, 45905.000,  22.301473870, 114.190304675,   -3.1948,  2,  5,  0.1792,  0.1812,  1.0405,  0.0202, -0.3463,  0.2288,  5.00,  16.7
2051, 45906.000,  22.301481010, 114.190307096,   -3.6678,  2,  6,  0.1744,  0.1771,  1.0065,  0.0133, -0.3376,  0.2230,  6.00,  37.7
2051, 45907.000,  22.301481990, 114.190305511,   -1.3909,  1,  6,  0.1268,  0.0163,  0.2509, -0.0282,  0.0263, -0.1710,  7.00,   3.4
2051, 45908.000,  22.301480810, 114.190303831,   -1.2254,  1,  6,  0.1237,  0.0176,  0.2470, -0.0277,  0.0211, -0.1669,  8.00,   8.1
2051, 45909.000,  22.301482268, 114.190307013,   -2.8545,  2,  6,  0.1644,  0.1684,  0.9275,  0.0156, -0.3190,  0.2049,  9.00,  16.7
2051, 45910.000,  22.301590876, 114.190300445,  -26.7320,  5,  3, 13.9952,  0.7103, 26.5311, -3.1084,  4.2673,-19.2619, 10.00,   0.0
2051, 45911.000,  22.301484791, 114.190260132,    7.1333,  2,  6,  0.1597,  0.1631,  0.9015, -0.0048, -0.3107,  0.1958, 11.00,   0.0
2051, 45912.000,  22.301478737, 114.190243482,   13.6172,  2,  6,  0.1567,  0.1600,  0.8768, -0.0126, -0.3038,  0.1925, 12.00,   0.0
2051, 45913.000,  22.301475904, 114.190231976,   16.3615,  2,  6,  0.1540,  0.1574,  0.8633, -0.0176, -0.2993,  0.1912, 13.00,   0.0
2051, 45914.000,  22.301477304, 114.190220723,   18.1517,  2,  6,  0.1514,  0.1548,  0.8413, -0.0196, -0.2935,  0.1877, 14.00,   0.0
2051, 45915.000,  22.301483017, 114.190210747,   19.7034,  2,  6,  0.1490,  0.1525,  0.8237, -0.0214, -0.2886,  0.1850, 15.00,   0.0
2051, 45916.000,  22.301491919, 114.190204441,   19.9273,  2,  6,  0.1469,  0.1504,  0.8082, -0.0229, -0.2842,  0.1827, 16.00,   0.0
2051, 45917.000,  22.301502076, 114.190201661,   18.4783,  2, 11,  0.1405,  0.1453,  0.7745, -0.0093, -0.2713,  0.1674, 17.00,   0.0
2051, 45918.000,  22.301513411, 114.190197852,   17.5326,  2, 11,  0.1342,  0.1400,  0.7424,  0.0169, -0.2584,  0.1530, 18.00,   0.0
2051, 45919.000,  22.301530353, 114.190194566,   14.2872,  1, 11,  0.0315,  0.0334,  0.2350, -0.0125, -0.0747,  0.0559, 19.00,   3.9
2051, 45920.000,  22.301551014, 114.190189975,   13.3443,  1, 12,  0.0277,  0.0304,  0.1956, -0.0088, -0.0625,  0.0434, 20.00, 164.0
2051, 45921.000,  22.301575266, 114.190185121,   11.6634,  2, 12,  0.1221,  0.1300,  0.6781,  0.0155, -0.2171,  0.1246, 21.00,   1.2
2051, 45922.000,  22.301601061, 114.190178747,   10.0799,  1, 13,  0.0264,  0.0285,  0.1702, -0.0117, -0.0531,  0.0393, 22.00,   5.4
2051, 45923.000,  22.301628838, 114.190171945,    8.5517,  2, 14,  0.1141,  0.1180,  0.6067,  0.0152, -0.1851,  0.1134, 23.00,   1.8
2051, 45924.000,  22.301656998, 114.190163480,    7.7105,  2, 14,  0.1106,  0.1127,  0.5737,  0.0148, -0.1704,  0.1102, 24.00,   1.4
2051, 45925.000,  22.301686117, 114.190153821,    7.2657,  2, 14,  0.1075,  0.1086,  0.5530,  0.0146, -0.1563,  0.1073, 25.00,   1.8
2051, 45926.000,  22.301717579, 114.190143143,    6.8538,  2, 14,  0.1047,  0.1048,  0.5289,  0.0143, -0.1467,  0.1045, 26.00,   1.1
2051, 45927.000,  22.301750886, 114.190131686,    6.3171,  2, 14,  0.1028,  0.1033,  0.5146,  0.0174, -0.1427,  0.1010, 27.00,   1.5
2051, 45928.000,  22.301785860, 114.190119349,    5.8857,  2, 14,  0.1029,  0.0996,  0.4986,  0.0160, -0.1330,  0.1058, 28.00,   1.2
2051, 45929.000,  22.301821859, 114.190105173,    5.5700,  2, 14,  0.0998,  0.0970,  0.4876,  0.0167, -0.1280,  0.0985, 29.00,   1.7
2051, 45930.000,  22.301856844, 114.190090373,    5.2478,  2, 14,  0.0933,  0.0911,  0.4526,  0.0134, -0.1187,  0.0930, -0.00,   1.5
2051, 45931.000,  22.301890269, 114.190076359,    5.0132,  2, 14,  0.0911,  0.0887,  0.4387,  0.0130, -0.1131,  0.0909,  1.00,   1.2
2051, 45932.000,  22.301923306, 114.190061925,    4.8136,  2, 14,  0.0892,  0.0866,  0.4264,  0.0126, -0.1081,  0.0890,  2.00,   1.2
2051, 45933.000,  22.301956230, 114.190047197,    4.6641,  2, 13,  0.0875,  0.0849,  0.4163,  0.0133, -0.1046,  0.0865,  3.00,   1.4
2051, 45934.000,  22.301989116, 114.190032001,    4.5026,  2, 13,  0.0859,  0.0832,  0.4067,  0.0140, -0.1010,  0.0841,  4.00,   1.2
2051, 45935.000,  22.302022982, 114.190015823,    4.4907,  2, 12,  0.0845,  0.0820,  0.3979,  0.0154, -0.0981,  0.0818,  5.00,   1.4
2051, 45936.000,  22.302056307, 114.190000193,    4.2965,  2, 13,  0.0832,  0.0805,  0.3896,  0.0157, -0.0950,  0.0798,  6.00,   1.4
2051, 45937.000,  22.302087795, 114.189984680,    4.1146,  2, 13,  0.0819,  0.0793,  0.3829,  0.0165, -0.0928,  0.0774,  7.00,   1.1
2051, 45938.000,  22.302119952, 114.189967785,    3.9849,  2, 10,  0.0815,  0.0785,  0.3782,  0.0172, -0.0919,  0.0771,  8.00,   1.0
2051, 45939.000,  22.302153504, 114.189949092,    3.9709,  2, 10,  0.0810,  0.0781,  0.3755,  0.0186, -0.0924,  0.0753,  9.00,   1.0
2051, 45940.000,  22.302186283, 114.189928440,    3.6474,  2, 11,  0.0804,  0.0764,  0.3665,  0.0186, -0.0878,  0.0750, 10.00,   1.0
2051, 45941.000,  22.302216856, 114.189904884,    3.7365,  2, 10,  0.0799,  0.0760,  0.3633,  0.0192, -0.0880,  0.0744, 11.00,   1.0
2051, 45942.000,  22.302244018, 114.189878503,    3.7091,  2,  9,  0.0808,  0.0755,  0.3598,  0.0177, -0.0876,  0.0756, 12.00,   1.1
2051, 45943.000,  22.302266798, 114.189848337,    3.7246,  2,  9,  0.0808,  0.0747,  0.3560,  0.0178, -0.0865,  0.0752, 13.00,   1.0
2051, 45944.000,  22.302283192, 114.189820421,    1.3872,  2, 10,  0.0809,  0.0734,  0.3493,  0.0178, -0.0829,  0.0749, 14.00,   1.1
2051, 45945.000,  22.302291814, 114.189781714,    3.6483,  2, 10,  0.0807,  0.0736,  0.3532,  0.0176, -0.0864,  0.0757, 15.00,   1.2
2051, 45946.000,  22.302292819, 114.189755003,    0.4420,  2, 11,  0.0794,  0.0728,  0.3445,  0.0194, -0.0828,  0.0732, 16.00,   1.3
2051, 45947.000,  22.302288782, 114.189723606,    0.3296,  2, 11,  0.0789,  0.0720,  0.3393,  0.0204, -0.0803,  0.0721, 17.00,   1.0
2051, 45948.000,  22.302278538, 114.189684011,    2.8241,  2, 11,  0.0784,  0.0717,  0.3382,  0.0204, -0.0810,  0.0716, 18.00,   1.1
2051, 45949.000,  22.302261135, 114.189647842,    2.8838,  2, 11,  0.0781,  0.0715,  0.3346,  0.0217, -0.0800,  0.0705, 19.00,   1.1
2051, 45950.000,  22.302239705, 114.189611487,    2.9666,  2, 11,  0.0778,  0.0702,  0.3291,  0.0218, -0.0764,  0.0699, 20.00,   1.0
2051, 45951.000,  22.302215356, 114.189573647,    3.0322,  2, 12,  0.0773,  0.0699,  0.3281,  0.0216, -0.0767,  0.0697, 21.00,   1.1
2051, 45952.000,  22.302188359, 114.189533430,    3.1342,  2, 13,  0.0763,  0.0688,  0.3228,  0.0211, -0.0735,  0.0684, 22.00,   1.1
2051, 45953.000,  22.302159437, 114.189491520,    3.1946,  2, 12,  0.0753,  0.0696,  0.3232,  0.0216, -0.0761,  0.0669, 23.00,   1.1
2051, 45954.000,  22.302128652, 114.189447154,    3.2345,  2, 11,  0.0762,  0.0707,  0.3183,  0.0272, -0.0744,  0.0635, 24.00,   1.1
2051, 45955.000,  22.302097562, 114.189400982,    3.3938,  2, 11,  0.0757,  0.0716,  0.3200,  0.0277, -0.0777,  0.0626, 25.00,   1.0
2051, 45956.000,  22.302069877, 114.189354974,    3.5908,  2,  9,  0.0812,  0.0720,  0.3288,  0.0303, -0.0763,  0.0786, 26.00,   1.2
2051, 45957.000,  22.302046868, 114.189307971,    4.1346,  2, 10,  0.0987,  0.0963,  0.3773,  0.0602, -0.1327, -0.0237, 27.00,   1.3
2051, 45958.000,  22.302029705, 114.189262579,    3.9921,  2,  9,  0.0985,  0.0934,  0.3760,  0.0601, -0.1279, -0.0210, 28.00,   1.5
2051, 45959.000,  22.302019679, 114.189218199,    3.7367,  2, 10,  0.0913,  0.0844,  0.3407,  0.0522, -0.1018,  0.0395, 29.00,   1.6
2051, 45960.000,  22.302016347, 114.189174355,    4.0705,  2,  9,  0.0717,  0.0653,  0.2879,  0.0299, -0.0687,  0.0566, -0.00,   1.2
2051, 45961.000,  22.302018313, 114.189133087,    4.0386,  2,  9,  0.0712,  0.0644,  0.2843,  0.0294, -0.0661,  0.0577,  1.00,   1.9
2051, 45962.000,  22.302025630, 114.189093690,    4.0436,  2,  9,  0.0713,  0.0646,  0.2830,  0.0307, -0.0672,  0.0552,  2.00,   1.6
2051, 45963.000,  22.302037330, 114.189054948,    4.1418,  2,  8,  0.0712,  0.0641,  0.2810,  0.0306, -0.0659,  0.0570,  3.00,   1.1
2051, 45964.000,  22.302043971, 114.189008759,    4.9085,  2,  8,  0.0701,  0.0640,  0.2814,  0.0302, -0.0678,  0.0543,  4.00,   1.7
2051, 45965.000,  22.302073155, 114.188975868,    4.8244,  2,  8,  0.0713,  0.0643,  0.2811,  0.0322, -0.0685,  0.0533,  5.00,   1.5
2051, 45966.000,  22.302095670, 114.188939400,    4.6293,  1,  6,  0.0589,  0.0531,  0.0927,  0.0542, -0.0547, -0.0485,  6.00,   3.6
2051, 45967.000,  22.302080924, 114.188910969,    4.5675,  5,  2, 29.8713,  3.8296, 29.8838, -9.0874, -8.8594, -2.7058,  7.00,   0.0
2051, 45968.000,  22.302135687, 114.188880603,   -0.1328,  5,  3,  1.4926,  2.9780, 29.8841,  1.5738, -8.8272, -3.2375,  8.00,   0.0
2051, 45969.000,  22.302208541, 114.188848111,   25.2151,  2,  4,  1.6355,  1.9787, 10.5001, -1.6426, -4.3993,  3.8279,  9.00,   0.0
2051, 45970.000,  22.302151857, 114.188818052,   -9.8670,  2,  4,  1.0701,  1.4991,  4.5819,  1.0672, -1.7313, -0.3401, 10.00,   0.0
2051, 45971.000,  22.302198529, 114.188796567,   -5.1486,  2,  4,  0.8537,  1.0795,  3.2754,  0.7990, -1.2121,  0.2664, 11.00,   0.0
2051, 45972.000,  22.302203591, 114.188766663,   13.4412,  5,  2, 18.3974, 23.7027, 30.0000,-20.8753,  0.8953,  1.0164, 12.00,   0.0
2051, 45973.000,  22.302206373, 114.188751307,   18.1708,  5,  2, 18.3993, 23.6994, 30.0000,-20.8770,  0.9159,  1.0395, 13.00,   0.0
2051, 45974.000,  22.302274711, 114.188624405,   52.6559,  2,  4,  1.3417,  1.6138,  8.3744, -1.4239, -3.5967,  3.2568, 14.00,   0.0
2051, 45975.000,  22.302193986, 114.188702174,    4.6699,  2,  5,  0.3605,  0.4290,  2.4413, -0.2087, -0.7905,  0.6172, 15.00,   0.0
2051, 45976.000,  22.302176568, 114.188699749,   -1.3531,  2,  5,  0.3278,  0.3799,  2.1674, -0.1769, -0.6987,  0.5405, 16.00,   0.0
2051, 45977.000,  22.302165147, 114.188696203,   -2.0151,  2,  7,  0.2919,  0.3182,  1.8757, -0.1149, -0.5666,  0.4329, 17.00,   0.0
2051, 45978.000,  22.302160945, 114.188706089,   -3.9131,  2,  8,  0.2655,  0.2804,  1.6736, -0.0698, -0.4851,  0.3577, 18.00,   0.0
2051, 45979.000,  22.302158540, 114.188709160,   -3.4133,  2,  8,  0.2621,  0.2520,  1.5252, -0.0203, -0.4142,  0.2599, 19.00,   0.0
2051, 45980.000,  22.302122161, 114.188707543,    9.2455,  2, 10,  0.2301,  0.2229,  1.2871, -0.0383, -0.3230,  0.3011, 20.00,   0.0
2051, 45981.000,  22.302122426, 114.188710172,    7.0191,  2,  9,  0.2174,  0.2035,  1.1558, -0.0360, -0.2691,  0.2975, 21.00,   0.0
2051, 45982.000,  22.302122336, 114.188712478,    5.5140,  2,  9,  0.2068,  0.1892,  1.0626, -0.0318, -0.2318,  0.2903, 22.00,   0.0
2051, 45983.000,  22.302125383, 114.188714829,    6.1173,  2,  9,  0.1970,  0.1795,  0.9900, -0.0354, -0.2057,  0.2805, 23.00,   0.0
2051, 45984.000,  22.302125991, 114.188718327,    5.7072,  2, 10,  0.1877,  0.1697,  0.9323, -0.0292, -0.1835,  0.2708, 24.00,   0.0
2051, 45985.000,  22.302127894, 114.188724847,    3.7958,  2, 11,  0.1802,  0.1621,  0.8841, -0.0176, -0.1415,  0.2617, 25.00,   1.4
2051, 45986.000,  22.302128649, 114.188729550,    0.4742,  2, 12,  0.1713,  0.1513,  0.8181, -0.0196, -0.1198,  0.2472, 26.00,   1.6
2051, 45987.000,  22.302128635, 114.188732515,   -1.1988,  2, 12,  0.1650,  0.1440,  0.7773, -0.0283, -0.1045,  0.2353, 27.00,   1.7
2051, 45988.000,  22.302130280, 114.188732961,   -2.2818,  1, 11,  0.0675,  0.1276,  0.1989,  0.0803,  0.0668,  0.0671, 28.00,   4.6
2051, 45989.000,  22.302130667, 114.188738479,   -0.2405,  2, 10,  0.1567,  0.1344,  0.7047, -0.0311, -0.0874,  0.2227, 29.00,   1.9
2051, 45990.000,  22.302131273, 114.188743366,    0.7255,  2,  9,  0.1477,  0.1268,  0.6674, -0.0311, -0.0963,  0.2117, -0.00,   1.2
2051, 45991.000,  22.302132212, 114.188751280,    0.7466,  2, 12,  0.1429,  0.1221,  0.6382, -0.0328, -0.0954,  0.2052,  1.00,   2.3
2051, 45992.000,  22.302134253, 114.188754262,    2.7881,  2, 12,  0.1389,  0.1177,  0.6115, -0.0295, -0.0887,  0.1986,  2.00,   1.2
2051, 45993.000,  22.302136960, 114.188756584,    4.9640,  2, 13,  0.1346,  0.1132,  0.5880, -0.0291, -0.0842,  0.1920,  3.00,   1.0
2051, 45994.000,  22.302138339, 114.188758623,    6.6340,  2, 11,  0.1318,  0.1097,  0.5676, -0.0263, -0.0791,  0.1875,  4.00,   2.2
2051, 45995.000,  22.302139200, 114.188757568,    6.6797,  1, 10,  0.0097,  0.0078,  0.0414,  0.0028,  0.0020,  0.0136,  5.00,   5.6
2051, 45996.000,  22.302138916, 114.188754601,    6.7090,  2, 12,  0.1257,  0.1041,  0.5377, -0.0232, -0.0644,  0.1788,  6.00,   1.1
2051, 45997.000,  22.302140057, 114.188752995,    7.2010,  2, 12,  0.1225,  0.1014,  0.5238, -0.0229, -0.0587,  0.1744,  7.00,   1.9
2051, 45998.000,  22.302141176, 114.188750252,    7.6856,  1, 12,  0.0114,  0.0092,  0.0537, -0.0013,  0.0059,  0.0137,  8.00,   6.3
2051, 45999.000,  22.302144846, 114.188748665,    9.3933,  2, 11,  0.1179,  0.0973,  0.5008, -0.0201, -0.0473,  0.1672,  9.00,   1.2
2051, 46000.000,  22.302144247, 114.188745518,   10.2843,  1, 12,  0.0146,  0.0111,  0.0622,  0.0048,  0.0103,  0.0164, 10.00,   3.2
2051, 46001.000,  22.302147214, 114.188744103,   11.4322,  2, 12,  0.1127,  0.0931,  0.4798, -0.0199, -0.0377,  0.1602, 11.00,   1.1
2051, 46002.000,  22.302148306, 114.188741862,   12.5995,  2, 11,  0.1109,  0.0918,  0.4721, -0.0216, -0.0368,  0.1576, 12.00,   1.2
2051, 46003.000,  22.302149347, 114.188739599,   13.7554,  2, 12,  0.1089,  0.0904,  0.4673, -0.0222, -0.0395,  0.1559, 13.00,   1.2
2051, 46004.000,  22.302150744, 114.188737333,   14.8463,  2, 12,  0.1069,  0.0886,  0.4572, -0.0211, -0.0321,  0.1526, 14.00,   1.0
2051, 46005.000,  22.302152034, 114.188735923,   15.5970,  2, 12,  0.1052,  0.0870,  0.4502, -0.0206, -0.0261,  0.1495, 15.00,   2.1
2051, 46006.000,  22.302152873, 114.188734507,   16.0767,  2, 11,  0.1043,  0.0862,  0.4427, -0.0166, -0.0148,  0.1482, 16.00,   2.2
2051, 46007.000,  22.302153414, 114.188733112,   16.4836,  2, 12,  0.1023,  0.0845,  0.4368, -0.0187, -0.0098,  0.1450, 17.00,   1.1
2051, 46008.000,  22.302153982, 114.188732141,   16.6410,  2, 12,  0.1008,  0.0833,  0.4308, -0.0185,  0.0101,  0.1428, 18.00,   1.8
2051, 46009.000,  22.302154486, 114.188731214,   16.7615,  2, 12,  0.0995,  0.0822,  0.4254, -0.0183,  0.0168,  0.1408, 19.00,   2.1
2051, 46010.000,  22.302155171, 114.188730073,   17.0372,  2, 12,  0.0982,  0.0811,  0.4191, -0.0180,  0.0206,  0.1395, 20.00,   1.1
2051, 46011.000,  22.302155612, 114.188729672,   16.9685,  2, 11,  0.1001,  0.0813,  0.4177, -0.0142,  0.0279,  0.1392, 21.00,   1.0
2051, 46012.000,  22.302155325, 114.188728689,   16.8408,  2, 11,  0.0971,  0.0803,  0.4132, -0.0197,  0.0259,  0.1370, 22.00,   1.1
2051, 46013.000,  22.302155882, 114.188727693,   16.4499,  2, 12,  0.0959,  0.0794,  0.4076, -0.0193,  0.0265,  0.1361, 23.00,   1.1
2051, 46014.000,  22.302155838, 114.188727321,   16.0948,  2, 12,  0.0947,  0.0783,  0.4029, -0.0180,  0.0298,  0.1346, 24.00,   1.0
2051, 46015.000,  22.302155734, 114.188726683,   15.7588,  2, 12,  0.0940,  0.0775,  0.4019, -0.0177,  0.0330,  0.1321, 25.00,   1.3
2051, 46016.000,  22.302155727, 114.188726251,   15.5352,  2, 12,  0.0930,  0.0768,  0.3968, -0.0172,  0.0342,  0.1316, 26.00,   1.2
2051, 46017.000,  22.302156289, 114.188725952,   15.2415,  2, 12,  0.0948,  0.0772,  0.3964, -0.0055,  0.0382,  0.1304, 27.00,   1.0
2051, 46018.000,  22.302156522, 114.188725533,   14.8704,  2, 10,  0.0952,  0.0769,  0.3970,  0.0065,  0.0411,  0.1317, 28.00,   1.1
2051, 46019.000,  22.302155990, 114.188724520,   14.3428,  2, 11,  0.0934,  0.0757,  0.3924, -0.0103,  0.0423,  0.1320, 29.00,   1.2
2051, 46020.000,  22.302156786, 114.188724899,   14.2937,  2, 12,  0.0846,  0.0697,  0.3576, -0.0147,  0.0279,  0.1205, -0.00,   1.3
2051, 46021.000,  22.302156773, 114.188724932,   13.9361,  2, 12,  0.0835,  0.0689,  0.3533, -0.0145,  0.0286,  0.1190,  1.00,   1.4
2051, 46022.000,  22.302156838, 114.188725081,   13.5977,  2, 11,  0.0827,  0.0683,  0.3494, -0.0135,  0.0302,  0.1179,  2.00,   1.3
2051, 46023.000,  22.302157153, 114.188724574,   13.6950,  2, 11,  0.0848,  0.0680,  0.3540, -0.0148,  0.0294,  0.1232,  3.00,   1.0
2051, 46024.000,  22.302157374, 114.188724489,   13.2595,  2, 12,  0.0815,  0.0664,  0.3439, -0.0122,  0.0353,  0.1166,  4.00,   1.2
2051, 46025.000,  22.302157455, 114.188724557,   12.9271,  2, 12,  0.0806,  0.0657,  0.3404, -0.0122,  0.0355,  0.1153,  5.00,   1.1
2051, 46026.000,  22.302157487, 114.188724957,   12.6507,  2, 12,  0.0801,  0.0652,  0.3376, -0.0114,  0.0359,  0.1140,  6.00,   1.4
2051, 46027.000,  22.302157709, 114.188725416,   12.3540,  2, 12,  0.0792,  0.0646,  0.3347, -0.0118,  0.0361,  0.1129,  7.00,   1.3
2051, 46028.000,  22.302157872, 114.188725234,   11.9244,  2, 12,  0.0786,  0.0641,  0.3318, -0.0111,  0.0368,  0.1122,  8.00,   1.3
2051, 46029.000,  22.302158361, 114.188725321,   11.8224,  2, 12,  0.0781,  0.0635,  0.3300, -0.0114,  0.0369,  0.1112,  9.00,   1.4
2051, 46030.000,  22.302158067, 114.188724746,   11.8855,  2, 12,  0.0777,  0.0632,  0.3275, -0.0100,  0.0373,  0.1102, 10.00,   1.5
2051, 46031.000,  22.302158471, 114.188724295,   11.9228,  2, 11,  0.0772,  0.0631,  0.3252, -0.0101,  0.0382,  0.1100, 11.00,   2.1
2051, 46032.000,  22.302158497, 114.188724093,   11.9633,  2, 10,  0.0770,  0.0634,  0.3234, -0.0114,  0.0407,  0.1092, 12.00,   1.0
2051, 46033.000,  22.302156768, 114.188723029,   12.0876,  2, 11,  0.0771,  0.0631,  0.3226, -0.0100,  0.0414,  0.1077, 13.00,   1.1
2051, 46034.000,  22.302150717, 114.188720878,   11.9642,  2, 10,  0.0766,  0.0631,  0.3204, -0.0100,  0.0420,  0.1080, 14.00,   1.2
2051, 46035.000,  22.302137378, 114.188716407,   11.9064,  2,  9,  0.0772,  0.0631,  0.3214, -0.0097,  0.0399,  0.1085, 15.00,   1.8
2051, 46036.000,  22.302115853, 114.188712071,   11.1952,  2, 10,  0.0766,  0.0623,  0.3189, -0.0046,  0.0431,  0.1085, 16.00,   1.5
2051, 46037.000,  22.302091403, 114.188702749,   11.2548,  2,  9,  0.0772,  0.0625,  0.3178, -0.0085,  0.0436,  0.1090, 17.00,   1.9
2051, 46038.000,  22.302066716, 114.188687924,   11.6117,  2,  7,  0.0793,  0.0640,  0.3178, -0.0179,  0.0409,  0.1109, 18.00,   2.0
2051, 46039.000,  22.302035690, 114.188672085,   12.2683,  2, 10,  0.0806,  0.0632,  0.3181, -0.0157,  0.0426,  0.1078, 19.00,   1.4
2051, 46040.000,  22.302003172, 114.188656720,   13.4019,  2,  7,  0.0877,  0.0866,  0.3868, -0.0477,  0.0087,  0.1274, 20.00, 103.7
2051, 46041.000,  22.301966356, 114.188641758,   12.4921,  2,  8,  0.0826,  0.0724,  0.3841, -0.0307,  0.0480,  0.1222, 21.00, 265.8
2051, 46042.000,  22.301932809, 114.188622221,   12.4335,  2,  8,  0.0818,  0.0728,  0.3818, -0.0326,  0.0440,  0.1211, 22.00, 313.0
2051, 46043.000,  22.301898850, 114.188600147,   12.4553,  2,  8,  0.0830,  0.0750,  0.3891, -0.0309,  0.0525,  0.1256, 23.00,  80.9
2051, 46044.000,  22.301862829, 114.188574567,   12.4055,  2,  8,  0.0825,  0.0749,  0.3872, -0.0342,  0.0443,  0.1244, 24.00, 933.1
2051, 46045.000,  22.301826880, 114.188544832,   12.4264,  2,  8,  0.0862,  0.0818,  0.3961, -0.0405,  0.0592,  0.1265, 25.00,  48.7
2051, 46046.000,  22.301791187, 114.188510803,   12.3611,  2,  7,  0.0861,  0.0818,  0.3952, -0.0439,  0.0509,  0.1251, 26.00,  24.4
2051, 46047.000,  22.301750036, 114.188480873,    1.9631,  2,  6,  0.3568,  0.4134,  5.4398, -0.3772, -1.4582,  1.3597, 27.00,  15.3
2051, 46048.000,  22.301717574, 114.188434576,   -7.1394,  2,  9,  0.2079,  0.2399,  2.5540, -0.2114, -0.7363,  0.6913, 28.00,  19.3
2051, 46049.000,  22.301683139, 114.188388907,   -4.5724,  2,  9,  0.1689,  0.1883,  1.9491, -0.1638, -0.5568,  0.5320, 29.00,  16.5
2051, 46050.000,  22.301642530, 114.188348276,   -9.9784,  2,  9,  0.1344,  0.1421,  1.5802, -0.1240, -0.4359,  0.4268, -0.00,   8.2
2051, 46051.000,  22.301613435, 114.188295536,   -7.4674,  2,  8,  0.1257,  0.1313,  1.4200, -0.1133, -0.3914,  0.3870,  1.00,   2.1
2051, 46052.000,  22.301591577, 114.188248193,   -5.5966,  2,  8,  0.1203,  0.1249,  1.3013, -0.1068, -0.3597,  0.3580,  2.00,   1.7
2051, 46053.000,  22.301605651, 114.188159471,   33.8678,  2,  9,  0.1202,  0.1705,  1.1770, -0.1204, -0.3689,  0.3391,  3.00,   1.0
2051, 46054.000,  22.301585563, 114.188152490,   24.6975,  2,  9,  0.1103,  0.1102,  1.1041, -0.0919, -0.2989,  0.3108,  4.00,   1.8
2051, 46055.000,  22.301657151, 114.188031047,   58.9140,  2,  8,  0.2402,  0.3475,  1.4750, -0.2284, -0.1530,  0.5142,  5.00,   1.0
2051, 46056.000,  22.301666954, 114.188003189,   48.6675,  1,  9,  0.1714,  0.2302,  0.8284, -0.1982, -0.4349,  0.3757,  6.00,   4.4
2051, 46057.000,  22.301648167, 114.188029543,   22.9903,  2,  9,  0.2164,  0.3069,  0.7897, -0.2499, -0.4355,  0.3761,  7.00,   1.0
2051, 46058.000,  22.301962345, 114.187702975,  196.7268,  1,  6,  6.6519, 11.4014, 28.7047, -3.1903,-13.4006, 12.9843,  8.00,  84.8
2051, 46059.000,  22.301847848, 114.187826992,  123.4735,  2,  4,  7.6905,  7.0196, 28.6742, -6.8787,-13.9175, 12.5407,  9.00,  46.3
2051, 46061.000,  22.301914171, 114.187848104,  115.2010,  2,  5,  5.6720,  6.7829, 28.4854, -6.2023,-13.8981, 12.7092, 11.00, 974.1
2051, 46062.000,  22.301810580, 114.188009080,   51.7377,  2,  5,  3.6690,  4.3843, 18.4152, -4.0102, -8.9823,  8.2170, 12.00,  55.0
2051, 46064.000,  22.302169035, 114.188083088,  182.5225,  2,  4,  7.2931,  3.1713, 29.0091, -4.0049, -8.3508, 14.5112, 14.00,   0.0
2051, 46068.000,  22.301869989, 114.188119294,   48.4664,  2,  5,  3.3839,  4.0253, 16.9762, -3.6901, -8.2632,  7.5764, 18.00,   3.7
2051, 46071.000,  22.301720880, 114.188324423,  -10.6825,  2,  4,  1.9141,  2.5203, 12.3297, -2.0889, -5.4841,  4.5981, 21.00,   0.0
2051, 46072.000,  22.301953679, 114.188019982,  188.7806,  2,  8,  1.1155,  1.3539,  6.3948, -1.1245, -2.8576,  2.4581, 22.00,   0.0
2051, 46073.000,  22.301767929, 114.188296184,   47.7104,  2,  7,  0.6582,  0.6608,  3.2008, -0.5257, -1.3175,  1.1871, 23.00,   0.0
2051, 46074.000,  22.301745829, 114.188320851,   26.1381,  2,  7,  0.5380,  0.5034,  2.4730, -0.3898, -0.9676,  0.9008, 24.00,   0.0
2051, 46075.000,  22.301749022, 114.188319570,   24.5522,  2,  7,  0.5017,  0.4846,  2.4169, -0.3805, -0.9541,  0.8842, 25.00,   0.0
2051, 46076.000,  22.301763247, 114.188319876,   26.9404,  2,  7,  0.4705,  0.4220,  2.1727, -0.3252, -0.8227,  0.8029, 26.00,   0.0
2051, 46077.000,  22.301776675, 114.188330344,   26.4151,  2,  6,  0.4569,  0.4075,  2.0444, -0.3279, -0.7826,  0.7735, 27.00,   0.0
2051, 46078.000,  22.301803453, 114.188357196,   18.0896,  2,  7,  0.4395,  0.4002,  1.9454, -0.3205, -0.7532,  0.7732, 28.00,   0.0
2051, 46079.000,  22.302311003, 114.188209696,  232.9092,  2,  4,  7.3665,  2.4175, 29.0151, -4.1705, -8.3439, 14.4819, 29.00,   0.0
2051, 46081.000,  22.301899156, 114.188395869,    0.8845,  2,  6,  0.7919,  0.3473,  2.0154, -0.2761,  0.0890, -0.1884,  1.00,   3.9
2051, 46082.000,  22.301938508, 114.188437573,  -12.0355,  2,  7,  0.5876,  0.2989,  1.6038, -0.2042, -0.0505,  0.3519,  2.00, 134.2
2051, 46083.000,  22.301981993, 114.188478767,  -13.0880,  2,  5,  0.4935,  0.2730,  1.4044, -0.1763, -0.1232,  0.3757,  3.00, 999.9
2051, 46084.000,  22.302029218, 114.188539012,  -13.0669,  5,  3,  5.7929,  6.8070, 28.6702, -6.2702,-13.8815, 12.8020,  4.00,   0.0
2051, 46089.000,  22.302380213, 114.188646717,   14.1686,  2,  5,  0.9866,  0.8640,  4.0338, -0.6428, -1.4249,  1.7795,  9.00,   0.0
2051, 46090.000,  22.302270437, 114.188574141,  -44.0389,  2,  5,  2.0993,  0.8720,  6.3408,  1.0426,  1.6356,  3.5494, 10.00,   0.0
2051, 46093.000,  22.302622690, 114.188453625,   -7.8401,  5,  3,  0.9078,  0.8163, 29.9953, -0.6578, -2.2715,  3.8874, 13.00,   0.0
2051, 46094.000,  22.302670508, 114.188457341,    1.0905,  5,  2, 29.9534,  1.7719, 29.9997, -7.0759, -2.0520, -0.4849, 14.00,   0.0
2051, 46095.000,  22.302616214, 114.188512736,   -0.3551,  5,  8, 30.0000, 30.0000, 30.0000,  0.0000,  0.0000,  0.0000, 15.00,   0.0
2051, 46096.000,  22.302612708, 114.188480286,    1.8890,  5,  8, 30.0000, 30.0000, 30.0000,  0.0000,  0.0000, -0.0000, 16.00,   0.0
2051, 46097.000,  22.302635100, 114.188466730,    8.9187,  5,  8, 30.0000, 30.0000, 30.0000,  0.0000,  0.0000,  0.0000, 17.00,   0.0
2051, 46098.000,  22.302654071, 114.188532370,   15.3198,  5,  9, 30.0000, 30.0000, 30.0000,  0.0000, -0.0000,  0.0000, 18.00,   0.0
2051, 46099.000,  22.302648902, 114.188545276,   15.6813,  5,  9, 30.0000, 30.0000, 30.0000,  0.0000,  0.0000,  0.0000, 19.00,   0.0
2051, 46100.000,  22.302609735, 114.188524201,    6.3466,  5,  9, 30.0000, 30.0000, 30.0000, -0.0000,  0.0000, -0.0000, 20.00,   0.0
2051, 46101.000,  22.302586296, 114.188529759,    8.1265,  5,  9, 30.0000, 30.0000, 30.0000,  0.0000, -0.0000,  0.0000, 21.00,   0.0
2051, 46102.000,  22.302542726, 114.188535663,   -2.1592,  5, 10, 30.0000, 30.0000, 30.0000,  0.0000,  0.0000,  0.0000, 22.00,   0.0
2051, 46103.000,  22.302575608, 114.188533321,   -9.5317,  5, 10, 30.0000, 30.0000, 30.0000,  0.0000,  0.0000,  0.0000, 23.00,   0.0
2051, 46104.000,  22.302582594, 114.188550624,   -5.7127,  5, 10, 30.0000, 30.0000, 30.0000,  0.0000, -0.0000,  0.0000, 24.00,   0.0
2051, 46105.000,  22.302635331, 114.188534826,  -13.2384,  5, 10, 30.0000, 30.0000, 30.0000,  0.0000,  0.0000,  0.0000, 25.00,   0.0
2051, 46106.000,  22.302683671, 114.188500690,  -12.4612,  5, 10, 30.0000, 30.0000, 30.0000,  0.0000,  0.0000, -0.0000, 26.00,   0.0
2051, 46107.000,  22.302770395, 114.188532530,   -2.0460,  5,  2, 11.2008, 27.8528, 29.9956, 17.6120, -2.3916,  3.7792, 27.00,   0.0
2051, 46108.000,  22.302793049, 114.188507415,  -19.1303,  2,  5,  0.6872,  0.7717,  3.7738, -0.1057, -1.3461,  0.7607, 28.00,   0.0
2051, 46109.000,  22.302835536, 114.188477347,   -7.1344,  2,  6,  0.5221,  0.5496,  2.7405, -0.1253, -0.9828,  0.6399, 29.00,   0.0
2051, 46110.000,  22.302887087, 114.188442637,   -1.7457,  2,  8,  0.4176,  0.4025,  2.0752,  0.1115, -0.6927,  0.4355,  0.00,   0.0
2051, 46111.000,  22.302944056, 114.188399647,   -0.8467,  2,  9,  0.3555,  0.3343,  1.7329,  0.1268, -0.5622,  0.3304,  1.00,   0.0
2051, 46112.000,  22.302998691, 114.188355318,   -0.0741,  2,  9,  0.3153,  0.2925,  1.5210,  0.1245, -0.4857,  0.2728,  2.00,   0.0
2051, 46113.000,  22.303057410, 114.188300439,    2.0159,  2,  9,  0.2788,  0.2405,  1.1941,  0.1092, -0.3283,  0.2506,  3.00,   0.0
2051, 46114.000,  22.303113372, 114.188246196,    1.3485,  2,  7,  0.2683,  0.2204,  1.0577,  0.0964, -0.2871,  0.2286,  4.00,   0.0
2051, 46115.000,  22.303164425, 114.188167906,    7.0768,  5,  3,  6.9301,  7.7830, 28.1358,  7.3408,-14.7927,-13.9519,  5.00,   0.0
2051, 46116.000,  22.303214826, 114.188051809,   17.3595,  2,  5,  0.2566,  0.2233,  1.0318,  0.0967, -0.3131,  0.2463,  6.00,   0.0
2051, 46117.000,  22.303252077, 114.188030196,   -3.0116,  2,  6,  0.2469,  0.2118,  0.9726,  0.1026, -0.2906,  0.2418,  7.00,   0.0
2051, 46118.000,  22.303302432, 114.187940307,    0.1734,  2,  7,  0.2389,  0.2005,  0.9112,  0.1041, -0.2641,  0.2398,  8.00,   0.0
2051, 46119.000,  22.303349157, 114.187858095,   -2.1555,  2,  8,  0.2289,  0.1910,  0.8617,  0.1024, -0.2435,  0.2365,  9.00,   0.0
2051, 46120.000,  22.303406339, 114.187773259,   -3.0352,  2,  7,  0.2226,  0.1834,  0.8201,  0.1030, -0.2262,  0.2327, 10.00,   0.0
2051, 46121.000,  22.303463069, 114.187685216,   -3.6265,  2,  7,  0.2172,  0.1768,  0.7845,  0.1032, -0.2115,  0.2292, 11.00,   0.0
2051, 46122.000,  22.303564589, 114.187641235,  -13.7328,  2,  4,  0.2325,  0.1930,  0.7879,  0.1338, -0.2432,  0.1883, 12.00,   0.0
2051, 46128.000,  22.303789187, 114.186997770,   -0.0006,  2,  5,  5.5555,  4.2936,  3.7739,  4.8517, -2.9373, -3.0736, 18.00,   0.0
2051, 46129.000,  22.303853731, 114.187061231,   13.4806,  2,  4,  8.8262, 11.3878, 26.3966, -9.9251, 17.2854,-15.0888, 19.00,   0.0
2051, 46130.000,  22.303933346, 114.186858702,   14.0495,  2,  8,  0.8164,  0.5653,  1.7940,  0.5868,  0.6890,  0.9325, 20.00,   0.0
2051, 46131.000,  22.303985225, 114.186839701,   46.5832,  2,  4, 10.6989,  4.8400, 27.6113,  7.1836,-11.5467,-17.1802, 21.00,   0.0
2051, 46132.000,  22.304113082, 114.186779624,   26.7891,  2,  7,  0.3558,  0.3103,  0.9373,  0.1886, -0.4096, -0.3323, 22.00,   0.0
2051, 46133.000,  22.304080941, 114.186620946,   36.0625,  2,  7,  1.9675,  1.7558,  1.9152,  1.8409, -1.7411, -1.8171, 23.00,   0.0
2051, 46134.000,  22.304123446, 114.186537998,   35.9654,  2,  9,  0.4629,  0.4031,  0.9169,  0.3616, -0.4306, -0.3247, 24.00,   0.0
2051, 46135.000,  22.304225800, 114.186535786,   27.5444,  2,  7,  0.3756,  0.3024,  0.8336,  0.2608, -0.3223, -0.1992, 25.00,   0.0
2051, 46136.000,  22.304322919, 114.186506913,   26.3418,  2, 10,  0.2633,  0.2316,  0.7756,  0.1493, -0.2837, -0.1288, 26.00,   0.0
2051, 46137.000,  22.304375772, 114.186440711,   28.1871,  2,  8,  0.2605,  0.2276,  0.7775,  0.1467, -0.2928, -0.1175, 27.00,   0.0
2051, 46138.000,  22.304449793, 114.186402715,   23.3950,  2,  8,  0.2500,  0.2190,  0.7514,  0.1407, -0.2805, -0.0718, 28.00,   0.0
2051, 46139.000,  22.304467703, 114.186309986,   30.4809,  2,  8,  0.3177,  0.2857,  0.8210,  0.2404, -0.3805, -0.2785, 29.00,   0.0
2051, 46140.000,  22.304519310, 114.186256581,   29.9015,  2,  7,  0.2454,  0.2197,  0.7000,  0.1574, -0.2791, -0.1274,  0.00,   0.0
2051, 46141.000,  22.304572781, 114.186270326,   -0.4660,  1,  6,  0.0381,  0.0335,  0.0692,  0.0347, -0.0451, -0.0441,  1.00,  25.4
2051, 46142.000,  22.304598577, 114.186208682,    4.5760,  2,  7,  2.2992,  2.0266,  4.2847,  2.0752, -2.7070, -2.5731,  2.00,   1.2
2051, 46143.000,  22.304626150, 114.186170418,    6.6972,  2,  9,  0.5783,  0.5856,  1.9436,  0.4326, -0.8227, -0.2994,  3.00,   1.1
2051, 46144.000,  22.304629117, 114.186138896,    5.4570,  1,  9,  0.0319,  0.0286,  0.0645,  0.0288, -0.0391, -0.0370,  4.00,  17.5
2051, 46145.000,  22.304653028, 114.186113329,    5.5911,  2,  8,  0.3856,  0.3872,  1.4222,  0.2521, -0.5545,  0.1106,  5.00,   1.1
2051, 46146.000,  22.304660581, 114.186091984,    5.3546,  2,  8,  0.3038,  0.3379,  1.2210,  0.2132, -0.4736, -0.1097,  6.00,   1.9
2051, 46147.000,  22.304673223, 114.186080267,    5.8350,  2,  5,  0.2866,  0.3266,  1.1885,  0.1974, -0.4754, -0.1299,  7.00,   1.5
2051, 46148.000,  22.304812028, 114.185580417,   98.9074,  2,  5,  3.6258, 12.4069, 22.7400, -6.6944,-16.7894,  9.0619,  8.00,   1.5
2051, 46149.000,  22.304679527, 114.186067481,    5.4580,  2,  7,  0.2498,  0.2783,  1.0858,  0.1581, -0.4041,  0.0857,  9.00,   1.3
2051, 46150.000,  22.304699648, 114.186054885,   20.6206,  2,  8,  0.2313,  0.2564,  1.0082,  0.1450, -0.3608,  0.1057, 10.00,   1.4
2051, 46151.000,  22.304683703, 114.186061858,    9.3328,  1,  7,  0.1523,  0.1708,  0.6418,  0.1597, -0.3279, -0.3036, 11.00,   4.3
2051, 46152.000,  22.304690550, 114.186054921,   15.7430,  2,  8,  0.2068,  0.2275,  0.9282,  0.1232, -0.3130,  0.1457, 12.00,   1.1
2051, 46153.000,  22.304689041, 114.186053462,   15.3492,  2,  8,  0.1968,  0.2161,  0.8855,  0.1176, -0.2910,  0.1431, 13.00,   1.1
2051, 46154.000,  22.304685963, 114.186050530,   12.2920,  2, 10,  0.1870,  0.1968,  0.8029,  0.1095, -0.2504,  0.1390, 14.00,   1.1
2051, 46155.000,  22.304684148, 114.186049959,   11.6552,  2,  9,  0.1789,  0.1890,  0.7664,  0.1045, -0.2415,  0.1307, 15.00,   1.4
2051, 46156.000,  22.304683844, 114.186054534,    8.1667,  2, 10,  0.1718,  0.1759,  0.7146,  0.0988, -0.2155,  0.1266, 16.00,   1.1
2051, 46157.000,  22.304682772, 114.186053458,    8.1579,  2, 10,  0.1655,  0.1656,  0.6713,  0.0940, -0.1952,  0.1234, 17.00,   1.1
2051, 46158.000,  22.304681333, 114.186052501,    7.8933,  2, 10,  0.1599,  0.1571,  0.6359,  0.0900, -0.1790,  0.1201, 18.00,   1.1
2051, 46159.000,  22.304680140, 114.186051633,    7.6757,  2, 10,  0.1549,  0.1499,  0.6062,  0.0865, -0.1657,  0.1169, 19.00,   1.0
2051, 46160.000,  22.304679161, 114.186050953,    7.5428,  2, 10,  0.1505,  0.1438,  0.5807,  0.0835, -0.1545,  0.1139, 20.00,   1.3
2051, 46161.000,  22.304673092, 114.186050146,    6.6775,  2, 10,  0.1515,  0.1406,  0.5673,  0.0870, -0.1521,  0.1010, 21.00,   1.1
2051, 46162.000,  22.304672710, 114.186049828,    6.5045,  2,  9,  0.1477,  0.1376,  0.5563,  0.0849, -0.1499,  0.0987, 22.00,   2.8
2051, 46163.000,  22.304670894, 114.186051960,    5.0405,  2, 10,  0.1416,  0.1306,  0.5202,  0.0835, -0.1301,  0.0867, 23.00,   1.2
2051, 46164.000,  22.304671077, 114.186049548,    5.9457,  2,  9,  0.1380,  0.1305,  0.5183,  0.0809, -0.1376,  0.0865, 24.00,   1.7
2051, 46165.000,  22.304671405, 114.186049093,    6.0164,  2,  9,  0.1350,  0.1285,  0.5089,  0.0791, -0.1370,  0.0842, 25.00,   1.7
2051, 46166.000,  22.304671453, 114.186048588,    6.4591,  1,  9,  0.0333,  0.0381,  0.1503,  0.0221, -0.0526,  0.0062, 26.00,   3.8
2051, 46167.000,  22.304671949, 114.186048239,    6.1646,  2,  9,  0.1302,  0.1268,  0.5077,  0.0775, -0.1452,  0.0725, 27.00,   1.2
2051, 46168.000,  22.304673056, 114.186050144,    5.4194,  1, 10,  0.0359,  0.0325,  0.1435,  0.0221, -0.0354,  0.0120, 28.00,   3.4
2051, 46169.000,  22.304672339, 114.186048462,    5.8208,  2, 10,  0.1161,  0.1141,  0.4275,  0.0909, -0.0936, -0.0853, 29.00,   1.1
2051, 46170.000,  22.304672506, 114.186048069,    5.8605,  2, 10,  0.1130,  0.1015,  0.3907,  0.0791, -0.0637, -0.0406,  0.00,   1.4
2051, 46171.000,  22.304672004, 114.186047696,    5.8391,  2, 10,  0.1109,  0.1000,  0.3850,  0.0773, -0.0652, -0.0389,  1.00,   1.4
2051, 46172.000,  22.304672913, 114.186047883,    5.7876,  2, 10,  0.1092,  0.0986,  0.3797,  0.0759, -0.0666, -0.0376,  2.00,   1.1
2051, 46173.000,  22.304673258, 114.186047908,    5.7986,  2, 10,  0.1075,  0.0973,  0.3753,  0.0745, -0.0680, -0.0353,  3.00,   1.2
2051, 46174.000,  22.304669933, 114.186045378,    5.9733,  2, 10,  0.1058,  0.0958,  0.3714,  0.0724, -0.0677, -0.0232,  4.00,   1.2
2051, 46175.000,  22.304666508, 114.186042754,    6.1624,  2, 10,  0.1036,  0.0943,  0.3644,  0.0705, -0.0661, -0.0162,  5.00,   2.3
2051, 46176.000,  22.304663586, 114.186040941,    6.2581,  1, 10,  0.0092,  0.0111,  0.0478,  0.0058, -0.0161,  0.0003,  6.00,   5.3
2051, 46177.000,  22.304660803, 114.186038128,    6.5799,  2, 10,  0.0998,  0.0916,  0.3628,  0.0673, -0.0683, -0.0106,  7.00,   1.6
2051, 46178.000,  22.304658694, 114.186036612,    6.7283,  2, 10,  0.0981,  0.0903,  0.3637,  0.0659, -0.0667,  0.0118,  8.00,   1.5
2051, 46179.000,  22.304659666, 114.186037454,    6.7072,  2, 10,  0.0982,  0.0897,  0.3600,  0.0656, -0.0675,  0.0154,  9.00,   1.2
2051, 46180.000,  22.304660522, 114.186038266,    6.6997,  2, 10,  0.0974,  0.0889,  0.3570,  0.0648, -0.0685,  0.0155, 10.00,   1.0
2051, 46181.000,  22.304661227, 114.186039049,    6.6799,  2, 10,  0.0957,  0.0882,  0.3541,  0.0637, -0.0691,  0.0194, 11.00,   1.5
2051, 46182.000,  22.304661911, 114.186039814,    6.6721,  2, 10,  0.0945,  0.0876,  0.3515,  0.0628, -0.0699,  0.0211, 12.00,   1.4
2051, 46183.000,  22.304662636, 114.186040530,    6.6348,  2,  9,  0.0934,  0.0872,  0.3420,  0.0621, -0.0731,  0.0148, 13.00,   1.3
2051, 46184.000,  22.304663358, 114.186041342,    6.5732,  2,  9,  0.0925,  0.0868,  0.3425,  0.0615, -0.0756,  0.0090, 14.00,   1.1
2051, 46185.000,  22.304663978, 114.186042053,    6.5172,  2,  9,  0.0917,  0.0861,  0.3380,  0.0608, -0.0751,  0.0138, 15.00,   1.0
2051, 46186.000,  22.304664702, 114.186042833,    6.4675,  2,  9,  0.0913,  0.0869,  0.3423,  0.0611, -0.0813, -0.0149, 16.00,   1.0
2051, 46187.000,  22.304665398, 114.186043518,    6.4468,  2,  9,  0.0904,  0.0858,  0.3360,  0.0600, -0.0785,  0.0098, 17.00,   1.1
2051, 46188.000,  22.304666025, 114.186044142,    6.4499,  2,  9,  0.0899,  0.0857,  0.3333,  0.0596, -0.0788,  0.0126, 18.00,   1.1
2051, 46189.000,  22.304666674, 114.186044690,    6.4516,  2,  9,  0.0896,  0.0865,  0.3414,  0.0600, -0.0862, -0.0188, 19.00,   1.1
2051, 46190.000,  22.304667277, 114.186045192,    6.4790,  2,  9,  0.0889,  0.0857,  0.3342,  0.0591, -0.0829,  0.0050, 20.00,   1.1
2051, 46191.000,  22.304667985, 114.186045705,    6.4697,  2,  9,  0.0925,  0.0861,  0.3509,  0.0557, -0.0897,  0.0587, 21.00,   1.2
2051, 46192.000,  22.304668734, 114.186046570,    6.2289,  2,  9,  0.0920,  0.0861,  0.3542,  0.0550, -0.0930,  0.0553, 22.00,   2.6
2051, 46193.000,  22.304669889, 114.186048614,    5.8137,  1,  9,  0.0437,  0.0386,  0.1887,  0.0113, -0.0662,  0.0584, 23.00,   3.0
2051, 46194.000,  22.304669895, 114.186048592,    5.8258,  1,  9,  0.0422,  0.0398,  0.2292,  0.0065, -0.0666,  0.0621, 24.00,   3.2
2051, 46195.000,  22.304670272, 114.186047797,    6.2297,  2, 10,  0.0970,  0.0874,  0.3992,  0.0565, -0.0988,  0.0619, 25.00,   2.9
2051, 46196.000,  22.304670880, 114.186048698,    5.8310,  2,  9,  0.0882,  0.0870,  0.3447,  0.0587, -0.0956, -0.0061, 26.00,   2.1
2051, 46197.000,  22.304671315, 114.186048916,    5.8486,  2,  9,  0.0877,  0.0859,  0.3348,  0.0576, -0.0892,  0.0258, 27.00,   1.5
2051, 46198.000,  22.304671781, 114.186049146,    5.8991,  2,  9,  0.0880,  0.0879,  0.3508,  0.0588, -0.0999, -0.0155, 28.00,   1.1
2051, 46199.000,  22.304672228, 114.186049500,    5.7629,  2,  9,  0.0873,  0.0857,  0.3381,  0.0569, -0.0921,  0.0250, 29.00,   1.1
2051, 46200.000,  22.304672391, 114.186049089,    6.1351,  2,  9,  0.0785,  0.0737,  0.2868,  0.0505, -0.0656,  0.0303,  0.00,   1.6
2051, 46201.000,  22.304672798, 114.186049341,    6.1836,  2,  9,  0.0777,  0.0732,  0.2839,  0.0500, -0.0653,  0.0296,  1.00,   2.0
2051, 46202.000,  22.304673071, 114.186049573,    6.1876,  2,  9,  0.0771,  0.0727,  0.2817,  0.0495, -0.0652,  0.0290,  2.00,   2.3
2051, 46203.000,  22.304673419, 114.186049791,    6.1844,  2,  9,  0.0765,  0.0724,  0.2808,  0.0492, -0.0661,  0.0276,  3.00,   2.6
2051, 46204.000,  22.304673569, 114.186050092,    6.1036,  2,  9,  0.0759,  0.0719,  0.2785,  0.0487, -0.0658,  0.0280,  4.00,   2.4
2051, 46205.000,  22.304673861, 114.186050253,    6.1295,  2,  9,  0.0754,  0.0716,  0.2769,  0.0484, -0.0659,  0.0279,  5.00,   2.3
2051, 46206.000,  22.304674048, 114.186050479,    6.0998,  2,  9,  0.0749,  0.0713,  0.2755,  0.0480, -0.0661,  0.0279,  6.00,   2.1
2051, 46207.000,  22.304674029, 114.186050285,    6.0597,  2,  9,  0.0745,  0.0709,  0.2743,  0.0477, -0.0662,  0.0281,  7.00,   1.9
2051, 46208.000,  22.304674171, 114.186050504,    6.0050,  2,  9,  0.0741,  0.0707,  0.2733,  0.0473, -0.0665,  0.0282,  8.00,   1.7
2051, 46209.000,  22.304674473, 114.186050939,    5.9216,  2,  9,  0.0739,  0.0711,  0.2765,  0.0475, -0.0697,  0.0242,  9.00,   1.5
2051, 46210.000,  22.304674514, 114.186051076,    5.8575,  2,  9,  0.0736,  0.0710,  0.2765,  0.0474, -0.0706,  0.0236, 10.00,   1.3
2051, 46211.000,  22.304674584, 114.186051169,    5.8176,  2,  9,  0.0732,  0.0705,  0.2735,  0.0468, -0.0692,  0.0263, 11.00,   1.2
2051, 46212.000,  22.304674520, 114.186051006,    5.7517,  2, 10,  0.0729,  0.0700,  0.2714,  0.0464, -0.0681,  0.0280, 12.00,   1.1
2051, 46213.000,  22.304674833, 114.186051411,    5.6143,  2,  9,  0.0728,  0.0705,  0.2753,  0.0464, -0.0671,  0.0280, 13.00,   1.1
2051, 46214.000,  22.304674923, 114.186051461,    5.5379,  2,  9,  0.0725,  0.0702,  0.2752,  0.0460, -0.0671,  0.0287, 14.00,   1.0
2051, 46215.000,  22.304675034, 114.186051421,    5.4846,  2,  9,  0.0723,  0.0701,  0.2755,  0.0458, -0.0673,  0.0292, 15.00,   1.0
2051, 46216.000,  22.304675098, 114.186051448,    5.3609,  2,  9,  0.0722,  0.0702,  0.2908,  0.0457, -0.0700,  0.0239, 16.00,   1.1
2051, 46217.000,  22.304675242, 114.186051389,    5.3097,  2,  9,  0.0721,  0.0702,  0.2843,  0.0455, -0.0693,  0.0272, 17.00,   1.1
2051, 46218.000,  22.304675330, 114.186051438,    5.2528,  2, 10,  0.0723,  0.0708,  0.2737,  0.0461, -0.0731,  0.0273, 18.00,   1.3
2051, 46219.000,  22.304675525, 114.186051387,    5.2216,  2,  9,  0.0726,  0.0724,  0.2857,  0.0472, -0.0810,  0.0137, 19.00,   1.3
2051, 46220.000,  22.304675633, 114.186051421,    5.1215,  2,  9,  0.0723,  0.0713,  0.2788,  0.0461, -0.0767,  0.0246, 20.00,   1.5
2051, 46221.000,  22.304675804, 114.186051454,    5.0660,  2,  9,  0.0728,  0.0733,  0.2902,  0.0475, -0.0844,  0.0077, 21.00,   1.5
2051, 46222.000,  22.304675983, 114.186051503,    5.0023,  2,  9,  0.0725,  0.0719,  0.2821,  0.0463, -0.0793,  0.0237, 22.00,   1.6
2051, 46223.000,  22.304676134, 114.186051523,    4.9629,  2,  9,  0.0727,  0.0726,  0.2805,  0.0467, -0.0792,  0.0253, 23.00,   1.6
2051, 46224.000,  22.304676579, 114.186052040,    4.7383,  2,  9,  0.0727,  0.0728,  0.2917,  0.0465, -0.0834,  0.0205, 24.00,   1.7
2051, 46225.000,  22.304676396, 114.186051968,    4.7697,  2, 10,  0.0735,  0.0754,  0.3010,  0.0486, -0.0914, -0.0158, 25.00,   1.7
2051, 46226.000,  22.304677730, 114.186051372,    4.5419,  2, 10,  0.0730,  0.0733,  0.2887,  0.0473, -0.0834,  0.0177, 26.00,   1.7
2051, 46227.000,  22.304682298, 114.186046323,    4.5905,  2, 10,  0.0729,  0.0728,  0.2854,  0.0470, -0.0810,  0.0224, 27.00,   1.5
2051, 46228.000,  22.304692949, 114.186030913,    4.7518,  2, 10,  0.0737,  0.0774,  0.3106,  0.0497, -0.0970, -0.0221, 28.00,   1.4
2051, 46229.000,  22.304708379, 114.186009672,    4.8750,  2, 10,  0.0737,  0.0751,  0.2959,  0.0485, -0.0877,  0.0127, 29.00,   1.3
2051, 46230.000,  22.304727488, 114.185984283,    4.9085,  2, 10,  0.0639,  0.0618,  0.2388,  0.0403, -0.0614,  0.0261,  0.00,   1.3
2051, 46231.000,  22.304748596, 114.185960328,    4.9074,  2, 12,  0.0633,  0.0611,  0.2363,  0.0396, -0.0600,  0.0281,  1.00,   1.1
2051, 46232.000,  22.304774512, 114.185943940,    4.8945,  2, 12,  0.0624,  0.0606,  0.2349,  0.0389, -0.0596,  0.0274,  2.00,   1.2
2051, 46233.000,  22.304805683, 114.185936888,    4.9521,  2, 10,  0.0621,  0.0604,  0.2362,  0.0381, -0.0607,  0.0293,  3.00,   1.1
2051, 46234.000,  22.304841154, 114.185938685,    4.6906,  2,  8,  0.0620,  0.0602,  0.2446,  0.0376, -0.0622,  0.0319,  4.00,   1.2
2051, 46235.000,  22.304881704, 114.185957366,   -0.5031,  2,  8,  0.0910,  0.2625,  1.5441,  0.1360, -0.6273, -0.3183,  5.00,  18.3
2051, 46236.000,  22.304915678, 114.185953258,   13.0248,  2,  7,  0.0634,  0.0617,  0.2447,  0.0394, -0.0673,  0.0147,  6.00,   7.3
2051, 46237.000,  22.304955301, 114.185976072,   12.8709,  2,  6,  0.0685,  0.0623,  0.2431,  0.0328, -0.0653,  0.0209,  7.00,   0.0
2051, 46238.000,  22.304969870, 114.186009631,   10.2641,  2,  6,  0.0658,  0.0626,  0.2444,  0.0333, -0.0636,  0.0181,  8.00,   0.0
2051, 46239.000,  22.305030438, 114.185919482,   -5.0526,  2,  4,  0.0697,  0.1421,  0.3020, -0.0428,  0.1367, -0.0596,  9.00,   0.0
2051, 46249.000,  22.305486224, 114.186326178,    8.1787,  2,  5,  1.6266,  2.1558,  2.4751, -1.7986, -0.5978,  0.7767, 19.00,   0.0
2051, 46250.000,  22.305518977, 114.186323037,    6.1454,  2,  5,  1.1578,  1.5539,  1.7654, -1.2715, -0.3756,  0.5577, 20.00,   0.0
2051, 46256.000,  22.305298412, 114.186331103, -148.4907,  5,  5, 30.0000, 30.0000, 30.0000, -0.0000,  0.0000,  0.0000, 26.00,   0.0
2051, 46257.000,  22.305230012, 114.186270987, -226.7024,  5,  5, 30.0000, 30.0000, 30.0000, -0.0000,  0.0000, -0.0000, 27.00,   0.0
2051, 46258.000,  22.305031352, 114.186184900, -247.0665,  5,  2, 29.9940,  1.1010, 29.9974, -4.2491,  3.4359,  0.4870, 28.00,   0.0
2051, 46259.000,  22.305052758, 114.186147600, -221.3509,  5,  5, 30.0000, 30.0000, 30.0000,  0.0000,  0.0000, -0.0000, 29.00,   0.0
2051, 46269.000,  22.305014495, 114.185350491,   -4.4670,  5,  4, 30.0000, 30.0000, 30.0000, -0.0000,  0.0000,  0.0000,  9.00,   0.0
2051, 46279.000,  22.306119238, 114.185241649,   35.3846,  5,  4, 30.0000, 30.0000, 30.0000,  0.0000, -0.0000, -0.0000, 19.00,   0.0
2051, 46280.000,  22.306238388, 114.185273341,   22.0706,  5,  4, 30.0000, 30.0000, 30.0000,  0.0000,  0.0000,  0.0000, 20.00,   0.0
2051, 46281.000,  22.306271715, 114.185218963,   28.7396,  5,  4, 30.0000, 30.0000, 30.0000,  0.0000,  0.0000,  0.0000, 21.00,   0.0
2051, 46285.000,  22.304005353, 114.183440482,  306.9305,  5,  4, 30.0000, 30.0000, 30.0000, -0.0000,  0.0000,  0.0000, 25.00,   0.0
2051, 46286.000,  22.304436386, 114.183691972,  233.2341,  5,  5, 30.0000, 30.0000, 30.0000,  0.0000,  0.0000,  0.0000, 26.00,   0.0
2051, 46287.000,  22.304589275, 114.183677857,  228.8766,  5,  4, 30.0000, 30.0000, 30.0000, -0.0000,  0.0000, -0.0000, 27.00,   0.0
2051, 46292.000,  22.306447326, 114.184730450,  -23.3101,  5,  2, 26.9113, 13.7779, 29.7668, 18.7968, -9.9743,  7.0353,  2.00,   0.0
2051, 46293.000,  22.306606135, 114.184680477,   34.9857,  5,  2, 26.9113, 13.7767, 29.7671, 18.7970, -9.9717,  7.0334,  3.00,   0.0
2051, 46294.000,  22.306670875, 114.184717816,   -7.1271,  5,  3,  8.9363,  0.8309, 28.6717,  2.0704,  3.2622, 15.8920,  4.00,   0.0
2051, 46295.000,  22.306631885, 114.184664525,  -19.8561,  5,  3,  8.8914,  0.6579, 28.6685,  1.9649,  3.3064, 15.9051,  5.00,   0.0
2051, 46298.000,  22.306407557, 114.184336945,   46.9271,  5,  3, 19.0044, 12.1948, 20.0018, 15.2001,-15.5104,-19.2558,  8.00,   0.0
2051, 46301.000,  22.306639358, 114.184527630,  -14.9698,  2,  5,  0.7550,  0.5532,  2.8100,  0.3570, -1.0036,  0.6582, 11.00,   0.0
2051, 46302.000,  22.306653505, 114.184547379,  -19.4908,  2,  5,  0.5661,  0.4307,  2.2776,  0.1804, -0.7941,  0.6041, 12.00,   0.0
2051, 46303.000,  22.306654831, 114.184552941,  -20.7760,  2,  5,  0.4770,  0.3700,  1.9680,  0.0947, -0.6813,  0.5426, 13.00,   0.0
2051, 46304.000,  22.306647191, 114.184558187,  -19.8709,  2,  6,  0.4097,  0.3295,  1.7553,  0.0566, -0.6042,  0.4835, 14.00,   0.0
2051, 46305.000,  22.306647709, 114.184563736,  -20.5345,  2,  5,  0.3810,  0.3041,  1.6009,  0.0779, -0.5505,  0.4356, 15.00,   0.0
2051, 46306.000,  22.306647162, 114.184568166,  -24.2293,  2,  4,  0.3609,  0.2840,  1.5448,  0.0860, -0.5085,  0.4262, 16.00,   0.0
2051, 46307.000,  22.306645617, 114.184568968,  -26.1006,  2,  4,  0.3435,  0.2675,  1.4900,  0.0897, -0.4746,  0.4143, 17.00,   0.0
2051, 46308.000,  22.306711067, 114.184579454,   27.1333,  2,  5,  0.3251,  0.2537,  1.3826,  0.0906, -0.4478,  0.3785, 18.00,   0.0
2051, 46309.000,  22.306740228, 114.184602519,   43.3357,  2,  6,  0.3004,  0.2394,  1.3096,  0.0742, -0.4232,  0.3579, 19.00,   2.7
2051, 46310.000,  22.306728890, 114.184599464,   36.1915,  2,  6,  0.2817,  0.2276,  1.2412,  0.0627, -0.4033,  0.3395, 20.00,   2.2
2051, 46311.000,  22.306714321, 114.184594842,   30.3682,  2,  6,  0.2662,  0.2176,  1.1841,  0.0534, -0.3859,  0.3240, 21.00,   3.0
2051, 46312.000,  22.306702670, 114.184593934,   28.5629,  2,  6,  0.2533,  0.2090,  1.1461,  0.0460, -0.3696,  0.3123, 22.00,   9.1
2051, 46313.000,  22.306688262, 114.184591948,   23.1543,  2,  6,  0.2422,  0.2013,  1.1015,  0.0392, -0.3564,  0.3004, 23.00,  98.5
2051, 46314.000,  22.306674627, 114.184591189,   18.5252,  2,  6,  0.2325,  0.1946,  1.0627,  0.0333, -0.3447,  0.2899, 24.00,   6.0
2051, 46315.000,  22.306661132, 114.184589900,   17.9759,  2,  6,  0.2241,  0.1886,  1.0366,  0.0283, -0.3332,  0.2818, 25.00,   9.9
2051, 46316.000,  22.306644707, 114.184585687,   14.5315,  2,  6,  0.2167,  0.1832,  1.0045,  0.0232, -0.3240,  0.2733, 26.00,   1.2
2051, 46317.000,  22.306632754, 114.184584734,   14.5174,  2,  6,  0.2101,  0.1784,  0.9835,  0.0188, -0.3147,  0.2668, 27.00,   1.1
2051, 46318.000,  22.306623342, 114.184585364,   14.2159,  2,  6,  0.2042,  0.1741,  0.9638,  0.0144, -0.3064,  0.2608, 28.00,   1.2
2051, 46319.000,  22.306600314, 114.184578086,   14.1591,  2,  6,  0.2023,  0.1712,  0.9457,  0.0281, -0.2989,  0.2552, 29.00,   1.9
2051, 46320.000,  22.306604248, 114.184578583,   14.3099,  2,  5,  0.1910,  0.1613,  0.9001, -0.0067, -0.2813,  0.2427,  0.00,  11.8
2051, 46321.000,  22.306603367, 114.184578516,   14.2065,  2,  4,  0.1886,  0.1610,  0.8831,  0.0236, -0.2762,  0.2351,  1.00,   1.3
2051, 46323.000,  22.306572180, 114.184540819,   23.0228,  2,  5,  0.1830,  0.1558,  0.8506,  0.0194, -0.2632,  0.2244,  3.00,   1.9
2051, 46324.000,  22.306572057, 114.184542633,   23.3530,  2,  5,  0.1794,  0.1526,  0.8358,  0.0115, -0.2570,  0.2200,  4.00,   2.4
2051, 46325.000,  22.306554914, 114.184538678,   20.7246,  2,  4,  0.1792,  0.1499,  0.8171,  0.0158, -0.2524,  0.2160,  5.00,   1.3
2051, 46326.000,  22.306556361, 114.184540413,   21.0620,  2,  4,  0.1784,  0.1474,  0.8045,  0.0169, -0.2474,  0.2107,  6.00,   1.8
2051, 46327.000,  22.306579911, 114.184543281,   25.7642,  1,  4,  0.1843,  0.1177,  0.2036,  0.1461, -0.1512, -0.1848,  7.00,  13.2
2051, 46328.000,  22.306591241, 114.184545305,   26.3200,  2,  4,  0.6776,  0.1482,  2.1195,  0.1628,  0.1461,  1.1543,  8.00,   1.5
2051, 46329.000,  22.306620233, 114.184549544,   35.5872,  2,  4,  0.5681,  0.1446,  1.7773,  0.1367, -0.0341,  0.9522,  9.00,   1.2
2051, 46330.000,  22.306640631, 114.184552978,   41.4852,  2,  5,  0.4663,  0.1408,  1.5038,  0.1067, -0.1413,  0.7759, 10.00,   1.7
2051, 46331.000,  22.306626624, 114.184551596,   34.2853,  1,  5,  0.1679,  0.1076,  0.1996,  0.1322, -0.1396, -0.1657, 11.00,   4.5
2051, 46332.000,  22.306619507, 114.184550430,   29.9185,  2,  5,  0.3598,  0.1352,  1.2026,  0.0701, -0.1884,  0.5846, 12.00,   2.1
2051, 46333.000,  22.306609731, 114.184547599,   25.5369,  2,  5,  0.3297,  0.1366,  1.1213,  0.0632, -0.2038,  0.5274, 13.00,   1.7
2051, 46334.000,  22.306597169, 114.184543477,   21.1096,  2,  5,  0.3061,  0.1333,  1.0547,  0.0519, -0.2052,  0.4856, 14.00,   1.0
2051, 46335.000,  22.306583545, 114.184539205,   16.8095,  2,  5,  0.2874,  0.1311,  1.0021,  0.0428, -0.2065,  0.4520, 15.00,   1.0
2051, 46343.000,  22.306816171, 114.184332517,    8.7765,  2,  6,  0.6910,  0.5612,  4.3995,  0.0382, -1.2711,  1.2744, 23.00,   0.0
2051, 46345.000,  22.306888935, 114.184240902,   -5.5285,  2,  6,  0.4428,  0.4580,  2.9306, -0.1930, -0.0585,  0.4177, 25.00,   0.0
2051, 46347.000,  22.306917706, 114.184303779,   -1.6641,  2,  4,  0.8699,  1.9298,  2.1605, -1.2455, -1.5979,  1.0753, 27.00,   0.0
2051, 46348.000,  22.306932453, 114.184330118,   -1.6864,  2,  4,  1.0829,  1.3899,  1.6965, -1.1309, -1.0906,  0.9778, 28.00,   0.0
2051, 46349.000,  22.306987746, 114.184322673,    1.0404,  2,  4,  0.7794,  1.0085,  1.4174, -0.7912, -0.7448,  0.7028, 29.00,   0.0
2051, 46350.000,  22.307036539, 114.184322789,   -4.4345,  2,  6,  0.5932,  0.6509,  2.3239, -0.5353, -1.0411,  0.9323,  0.00,   0.0
2051, 46351.000,  22.307072728, 114.184359941,   -3.8992,  2,  5,  0.4000,  0.4707,  1.5988, -0.3293, -0.6186,  0.5284,  1.00,   0.0
2051, 46352.000,  22.307147164, 114.184417270,   11.7849,  2,  5,  1.1995,  0.7888,  4.8818,  0.8371,  1.6940,  2.3662,  2.00,   0.0
2051, 46353.000,  22.307156481, 114.184438602,    4.6684,  2,  4,  2.1206,  0.8725,  3.3129,  1.0909,  0.6246,  2.1669,  3.00,   0.0
2051, 46354.000,  22.307226183, 114.184473032,   12.9271,  2,  9,  0.4039,  0.6016,  2.0297, -0.3088, -0.9793,  0.4614,  4.00,   0.0
2051, 46355.000,  22.307275141, 114.184570214,   19.0278,  2,  4,  0.3766,  2.2935,  4.4659, -0.2346,  2.9798,  0.4812,  5.00,   0.0
2051, 46356.000,  22.307324760, 114.184445528,  -12.2506,  2,  6,  0.3498,  0.4409,  1.3328, -0.2673, -0.5839,  0.4242,  6.00,   0.0
2051, 46357.000,  22.307364545, 114.184512485,  -13.5724,  2,  8,  0.2649,  0.3170,  1.1422, -0.1263, -0.4141,  0.3154,  7.00,   0.0
2051, 46358.000,  22.307415302, 114.184567177,  -14.7212,  2,  9,  0.2411,  0.2770,  1.0307, -0.1194, -0.3361,  0.2941,  8.00,   0.0
2051, 46359.000,  22.307436557, 114.184583651,  -31.7129,  2,  8,  0.2262,  0.2492,  0.9540, -0.1025, -0.2643,  0.2711,  9.00,   0.0
2051, 46360.000,  22.307452512, 114.184619208,  -86.2297,  2,  9,  0.2145,  0.2244,  0.9268, -0.0971, -0.2360,  0.2670, 10.00,   0.0
2051, 46361.000,  22.307489089, 114.184642389,  -79.5349,  2,  9,  0.2054,  0.2120,  0.8627, -0.0982, -0.2132,  0.2541, 11.00,   0.0
2051, 46362.000,  22.307447351, 114.184825497,  -28.5589,  2,  9,  0.1966,  0.2018,  0.8366, -0.0957, -0.1863,  0.2462, 12.00,   0.0
2051, 46363.000,  22.307533298, 114.184710105,  -33.2267,  2,  9,  0.1898,  0.1935,  0.7718, -0.0985, -0.1642,  0.2288, 13.00,   0.0
2051, 46364.000,  22.307526315, 114.184737821,  -24.0087,  2, 11,  0.1738,  0.1845,  0.7266, -0.0924, -0.1526,  0.2063, 14.00,   0.0
2051, 46365.000,  22.307531761, 114.184725340,  -29.4592,  2,  8,  0.1699,  0.1803,  0.7064, -0.0929, -0.1351,  0.2000, 15.00,   0.0
2051, 46366.000,  22.307534197, 114.184731023,  -28.7980,  2,  8,  0.1694,  0.1758,  0.6886, -0.0960, -0.1383,  0.2043, 16.00,   3.5
2051, 46367.000,  22.307547680, 114.184748949,  -12.2895,  2, 12,  0.1573,  0.1664,  0.6455, -0.0891, -0.1410,  0.1877, 17.00,  17.6
2051, 46368.000,  22.307547330, 114.184750298,   -6.2147,  1, 12,  0.0403,  0.1440,  0.1839, -0.0688,  0.1429, -0.0582, 18.00,   3.6
2051, 46369.000,  22.307545341, 114.184759058,   -3.4141,  1, 12,  0.0388,  0.1383,  0.1754, -0.0657,  0.1366, -0.0569, 19.00,   3.8
2051, 46370.000,  22.307542476, 114.184765768,   -1.2111,  1, 12,  0.0255,  0.0468,  0.1302, -0.0233,  0.0508,  0.0171, 20.00,   6.0
2051, 46371.000,  22.307538949, 114.184772199,    0.8069,  2, 12,  0.1334,  0.1459,  0.5556, -0.0794, -0.1421,  0.1605, 21.00,   1.0
2051, 46372.000,  22.307538370, 114.184771896,    1.2421,  2, 11,  0.1299,  0.1423,  0.5397, -0.0781, -0.1397,  0.1564, 22.00,   1.3
2051, 46373.000,  22.307538432, 114.184773221,    2.3815,  2, 11,  0.1263,  0.1389,  0.5240, -0.0770, -0.1382,  0.1514, 23.00,   1.4
2051, 46374.000,  22.307537680, 114.184777621,    4.1319,  2, 10,  0.1235,  0.1382,  0.5139, -0.0773, -0.1308,  0.1454, 24.00,   1.4
2051, 46375.000,  22.307537929, 114.184779260,    5.1435,  2, 10,  0.1207,  0.1362,  0.5032, -0.0767, -0.1269,  0.1410, 25.00,   1.7
2051, 46376.000,  22.307537070, 114.184781201,    5.9943,  2, 11,  0.1178,  0.1342,  0.4933, -0.0757, -0.1231,  0.1365, 26.00,   1.7
2051, 46377.000,  22.307536262, 114.184783630,    6.9064,  2, 11,  0.1165,  0.1338,  0.4844, -0.0770, -0.1203,  0.1333, 27.00,   1.5
2051, 46378.000,  22.307536724, 114.184784767,    7.8896,  2, 11,  0.1164,  0.1321,  0.4789, -0.0773, -0.1193,  0.1342, 28.00,   1.3
2051, 46379.000,  22.307536887, 114.184785236,    8.3895,  2, 12,  0.1130,  0.1294,  0.4686, -0.0753, -0.1182,  0.1300, 29.00,   1.4
2051, 46380.000,  22.307537632, 114.184786129,    8.9424,  2, 12,  0.1058,  0.1211,  0.4399, -0.0690, -0.1137,  0.1227,  0.00,   2.0
2051, 46381.000,  22.307537318, 114.184787191,    8.9491,  2, 11,  0.1039,  0.1191,  0.4310, -0.0674, -0.1129,  0.1199,  1.00,   1.1
2051, 46382.000,  22.307541781, 114.184782361,    9.9413,  2, 12,  0.1013,  0.1165,  0.4213, -0.0653, -0.1102,  0.1169,  2.00,   1.1
2051, 46383.000,  22.307545536, 114.184776214,   11.0115,  2, 13,  0.0990,  0.1135,  0.4125, -0.0633, -0.1076,  0.1138,  3.00,   1.0
2051, 46384.000,  22.307548544, 114.184770828,   11.8735,  2, 13,  0.0969,  0.1108,  0.4042, -0.0615, -0.1052,  0.1109,  4.00,   1.1
2051, 46385.000,  22.307548350, 114.184770982,   11.8402,  2, 10,  0.0968,  0.1092,  0.3987, -0.0603, -0.1055,  0.1091,  5.00,   1.8
2051, 46386.000,  22.307548322, 114.184771515,   11.8791,  2, 11,  0.0961,  0.1076,  0.3926, -0.0598, -0.1049,  0.1085,  6.00,   2.2
2051, 46387.000,  22.307548394, 114.184771918,   11.7575,  2,  9,  0.0968,  0.1073,  0.3885, -0.0603, -0.1039,  0.1061,  7.00,   1.0
